{
"type": "FeatureCollection",
"name": "health-1",
"crs": { "type": "name", "properties": { "name": "urn:ogc:def:crs:OGC:1.3:CRS84" } },
"features": [
{ "type": "Feature", "properties": { "fid": 1, "name": "Невис", "type": "health" }, "geometry": { "type": "Point", "coordinates": [ 30.0150186, 59.7075414 ] } },
{ "type": "Feature", "properties": { "fid": 2, "name": "сексвис", "type": "health" }, "geometry": { "type": "Point", "coordinates": [ 30.020579, 59.7071855 ] } },
{ "type": "Feature", "properties": { "fid": 3, "name": "пепвис", "type": "health" }, "geometry": { "type": "Point", "coordinates": [ 30.0182632, 59.7068811 ] } },
{ "type": "Feature", "properties": { "fid": 4, "name": "2", "type": "health" }, "geometry": { "type": "Point", "coordinates": [ 30.042308656860239, 59.712237097233277 ] } },
{ "type": "Feature", "properties": { "fid": 5, "name": "2", "type": "health" }, "geometry": { "type": "Point", "coordinates": [ 30.042308656860239, 59.712237097233277 ] } },
{ "type": "Feature", "properties": { "fid": 6, "name": "2", "type": "health" }, "geometry": { "type": "Point", "coordinates": [ 30.042308656860239, 59.712237097233277 ] } },
{ "type": "Feature", "properties": { "fid": 7, "name": "2", "type": "health" }, "geometry": { "type": "Point", "coordinates": [ 30.042308656860239, 59.712237097233277 ] } },
{ "type": "Feature", "properties": { "fid": 8, "name": "2", "type": "health" }, "geometry": { "type": "Point", "coordinates": [ 30.042308656860239, 59.712237097233277 ] } },
{ "type": "Feature", "properties": { "fid": 9, "name": "2", "type": "health" }, "geometry": { "type": "Point", "coordinates": [ 30.042308656860239, 59.712237097233277 ] } },
{ "type": "Feature", "properties": { "fid": 10, "name": "23", "type": "health" }, "geometry": { "type": "Point", "coordinates": [ 30.048381339762649, 59.713358982559697 ] } },
{ "type": "Feature", "properties": { "fid": 11, "name": "23", "type": "health" }, "geometry": { "type": "Point", "coordinates": [ 30.048381339762649, 59.713358982559697 ] } },
{ "type": "Feature", "properties": { "fid": 12, "name": "23", "type": "health" }, "geometry": { "type": "Point", "coordinates": [ 30.048381339762649, 59.713358982559697 ] } },
{ "type": "Feature", "properties": { "fid": 13, "name": "23", "type": "health" }, "geometry": { "type": "Point", "coordinates": [ 30.048381339762649, 59.713358982559697 ] } },
{ "type": "Feature", "properties": { "fid": 14, "name": "23", "type": "health" }, "geometry": { "type": "Point", "coordinates": [ 30.048381339762649, 59.713358982559697 ] } },
{ "type": "Feature", "properties": { "fid": 15, "name": "23", "type": "health" }, "geometry": { "type": "Point", "coordinates": [ 30.048381339762649, 59.713358982559697 ] } },
{ "type": "Feature", "properties": { "fid": 16, "name": "23", "type": "health" }, "geometry": { "type": "Point", "coordinates": [ 30.048381339762649, 59.713358982559697 ] } },
{ "type": "Feature", "properties": { "fid": 17, "name": "23", "type": "health" }, "geometry": { "type": "Point", "coordinates": [ 30.048381339762649, 59.713358982559697 ] } },
{ "type": "Feature", "properties": { "fid": 18, "name": "23", "type": "health" }, "geometry": { "type": "Point", "coordinates": [ 30.048381339762649, 59.713358982559697 ] } },
{ "type": "Feature", "properties": { "fid": 19, "name": "23", "type": "health" }, "geometry": { "type": "Point", "coordinates": [ 30.048381339762649, 59.713358982559697 ] } },
{ "type": "Feature", "properties": { "fid": 20, "name": "23", "type": "health" }, "geometry": { "type": "Point", "coordinates": [ 30.048381339762649, 59.713358982559697 ] } },
{ "type": "Feature", "properties": { "fid": 21, "name": "123", "type": "health" }, "geometry": { "type": "Point", "coordinates": [ 30.032858652985361, 59.70890397518221 ] } },
{ "type": "Feature", "properties": { "fid": 22, "name": "123", "type": "health" }, "geometry": { "type": "Point", "coordinates": [ 30.032858652985361, 59.70890397518221 ] } },
{ "type": "Feature", "properties": { "fid": 23, "name": "123", "type": "health" }, "geometry": { "type": "Point", "coordinates": [ 30.032858652985361, 59.70890397518221 ] } },
{ "type": "Feature", "properties": { "fid": 24, "name": "123", "type": "health" }, "geometry": { "type": "Point", "coordinates": [ 30.032858652985361, 59.70890397518221 ] } },
{ "type": "Feature", "properties": { "fid": 25, "name": "123", "type": "health" }, "geometry": { "type": "Point", "coordinates": [ 30.032858652985361, 59.70890397518221 ] } },
{ "type": "Feature", "properties": { "fid": 26, "name": "123", "type": "health" }, "geometry": { "type": "Point", "coordinates": [ 30.032858652985361, 59.70890397518221 ] } },
{ "type": "Feature", "properties": { "fid": 27, "name": "123", "type": "health" }, "geometry": { "type": "Point", "coordinates": [ 30.032858652985361, 59.70890397518221 ] } },
{ "type": "Feature", "properties": { "fid": 28, "name": "123", "type": "health" }, "geometry": { "type": "Point", "coordinates": [ 30.032858652985361, 59.70890397518221 ] } },
{ "type": "Feature", "properties": { "fid": 29, "name": "123", "type": "health" }, "geometry": { "type": "Point", "coordinates": [ 30.032858652985361, 59.70890397518221 ] } }
]
}
